{"meta":{"name":"openaq-api","license":"CC BY 4.0","website":"https://docs.openaq.org/","page":1,"limit":10,"found":14979},"results":[{"location":"ES1995A","parameter":"pm10","date":{"utc":"2019-11-03T05:00:00.000Z","local":"2019-11-03T06:00:00+01:00"},"value":50,"unit":"µg/m³","coordinates":{"latitude":39.5458799994726,"longitude":2.69971},"country":"ES","city":"Illes Balears"},{"location":"ES1980A","parameter":"pm10","date":{"utc":"2019-11-02T07:00:00.000Z","local":"2019-11-02T07:00:00+00:00"},"value":50,"unit":"µg/m³","coordinates":{"latitude":28.685982999547,"longitude":-17.764587},"country":"ES","city":"Santa Cruz de Tenerife"},{"location":"ES0822A","parameter":"pm10","date":{"utc":"2019-11-02T07:00:00.000Z","local":"2019-11-02T08:00:00+01:00"},"value":49.4,"unit":"µg/m³","coordinates":{"latitude":37.2796399994821,"longitude":-6.93807},"country":"ES","city":"Huelva"},{"location":"ES1423A","parameter":"pm10","date":{"utc":"2019-11-02T09:00:00.000Z","local":"2019-11-02T10:00:00+01:00"},"value":48,"unit":"µg/m³","coordinates":{"latitude":37.6936111094801,"longitude":-1.06472222},"country":"ES","city":"Murcia"},{"location":"ES1995A","parameter":"pm10","date":{"utc":"2019-11-02T21:00:00.000Z","local":"2019-11-02T22:00:00+01:00"},"value":48,"unit":"µg/m³","coordinates":{"latitude":39.5458799994726,"longitude":2.69971},"country":"ES","city":"Illes Balears"},{"location":"ES1271A","parameter":"pm10","date":{"utc":"2019-11-03T01:00:00.000Z","local":"2019-11-03T02:00:00+01:00"},"value":48,"unit":"µg/m³","coordinates":{"latitude":43.5388629994638,"longitude":-5.698921},"country":"ES","city":"Asturias"},{"location":"ES0822A","parameter":"pm10","date":{"utc":"2019-11-02T08:00:00.000Z","local":"2019-11-02T09:00:00+01:00"},"value":47.5,"unit":"µg/m³","coordinates":{"latitude":37.2796399994821,"longitude":-6.93807},"country":"ES","city":"Huelva"},{"location":"ES0694A","parameter":"pm10","date":{"utc":"2019-11-01T01:00:00.000Z","local":"2019-11-01T02:00:00+01:00"},"value":47,"unit":"µg/m³","coordinates":{"latitude":41.3921574584672,"longitude":2.009802277},"country":"ES","city":"Barcelona"},{"location":"ES1980A","parameter":"pm10","date":{"utc":"2019-11-02T06:00:00.000Z","local":"2019-11-02T06:00:00+00:00"},"value":46,"unit":"µg/m³","coordinates":{"latitude":28.685982999547,"longitude":-17.764587},"country":"ES","city":"Santa Cruz de Tenerife"},{"location":"ES1860A","parameter":"pm10","date":{"utc":"2019-11-02T01:00:00.000Z","local":"2019-11-02T02:00:00+01:00"},"value":45.32,"unit":"µg/m³","coordinates":{"latitude":37.5550199994808,"longitude":-6.03616},"country":"ES","city":"Sevilla"}]}