{"meta":{"name":"openaq-api","license":"CC BY 4.0","website":"https://docs.openaq.org/","page":1,"limit":10,"found":14979},"results":[{"location":"ES1995A","parameter":"pm10","date":{"utc":"2019-11-03T09:00:00.000Z","local":"2019-11-03T10:00:00+01:00"},"value":59,"unit":"µg/m³","coordinates":{"latitude":39.5458799994726,"longitude":2.69971},"country":"ES","city":"Illes Balears"},{"location":"ES1963A","parameter":"pm10","date":{"utc":"2019-11-02T02:00:00.000Z","local":"2019-11-02T03:00:00+01:00"},"value":59,"unit":"µg/m³","coordinates":{"latitude":40.1192199994707,"longitude":-3.83279},"country":"ES","city":"Toledo"},{"location":"ES1921A","parameter":"pm10","date":{"utc":"2019-11-02T14:00:00.000Z","local":"2019-11-02T15:00:00+01:00"},"value":57,"unit":"µg/m³","coordinates":{"latitude":37.6030555494806,"longitude":-0.97527777},"country":"ES","city":"Murcia"},{"location":"ES1181A","parameter":"pm10","date":{"utc":"2019-11-03T00:00:00.000Z","local":"2019-11-03T01:00:00+01:00"},"value":57,"unit":"µg/m³","coordinates":{"latitude":39.4811111094728,"longitude":-0.44722222},"country":"ES","city":"Valencia/València"},{"location":"ES1940A","parameter":"pm10","date":{"utc":"2019-11-02T14:00:00.000Z","local":"2019-11-02T15:00:00+01:00"},"value":55,"unit":"µg/m³","coordinates":{"latitude":40.4658333294697,"longitude":-3.68833333},"country":"ES","city":"Madrid"},{"location":"ES1792A","parameter":"pm10","date":{"utc":"2019-11-02T06:00:00.000Z","local":"2019-11-02T07:00:00+01:00"},"value":54.15,"unit":"µg/m³","coordinates":{"latitude":37.1337899994828,"longitude":-6.80745},"country":"ES","city":"Huelva"},{"location":"ES1995A","parameter":"pm10","date":{"utc":"2019-11-02T23:00:00.000Z","local":"2019-11-03T00:00:00+01:00"},"value":54,"unit":"µg/m³","coordinates":{"latitude":39.5458799994726,"longitude":2.69971},"country":"ES","city":"Illes Balears"},{"location":"ES1792A","parameter":"pm10","date":{"utc":"2019-11-02T07:00:00.000Z","local":"2019-11-02T08:00:00+01:00"},"value":51.3,"unit":"µg/m³","coordinates":{"latitude":37.1337899994828,"longitude":-6.80745},"country":"ES","city":"Huelva"},{"location":"ES1980A","parameter":"pm10","date":{"utc":"2019-11-02T08:00:00.000Z","local":"2019-11-02T08:00:00+00:00"},"value":51,"unit":"µg/m³","coordinates":{"latitude":28.685982999547,"longitude":-17.764587},"country":"ES","city":"Santa Cruz de Tenerife"},{"location":"ES1792A","parameter":"pm10","date":{"utc":"2019-11-02T08:00:00.000Z","local":"2019-11-02T09:00:00+01:00"},"value":50.35,"unit":"µg/m³","coordinates":{"latitude":37.1337899994828,"longitude":-6.80745},"country":"ES","city":"Huelva"}]}