{"meta":{"name":"openaq-api","license":"CC BY 4.0","website":"https://docs.openaq.org/","page":1,"limit":10,"found":244397},"results":[{"location":"Mogilno,Kościuszki","parameter":"pm10","date":{"local":"2019-08-27T10:00:00+02:00","utc":"2019-08-27T08:00:00.000Z"},"value":1716,"unit":"µg/m³","coordinates":{"latitude":52.656842,"longitude":17.949565},"country":"PL","city":"Mogilno"},{"location":"Legionowo-Zegrzyńska","parameter":"pm10","date":{"local":"2019-08-27T13:00:00+02:00","utc":"2019-08-27T11:00:00.000Z"},"value":905.4,"unit":"µg/m³","coordinates":{"latitude":52.407578,"longitude":20.955928},"country":"PL","city":"Legionowo"},{"location":"Mogilno,Kościuszki","parameter":"pm10","date":{"local":"2019-08-27T11:00:00+02:00","utc":"2019-08-27T09:00:00.000Z"},"value":649.5,"unit":"µg/m³","coordinates":{"latitude":52.656842,"longitude":17.949565},"country":"PL","city":"Mogilno"},{"location":"Kraków, os. Swoszowice","parameter":"pm10","date":{"local":"2019-08-21T06:00:00+02:00","utc":"2019-08-21T04:00:00.000Z"},"value":614.113,"unit":"µg/m³","coordinates":{"latitude":49.991442,"longitude":19.936792},"country":"PL","city":"Kraków"},{"location":"Działoszyn","parameter":"pm10","date":{"local":"2019-10-17T02:00:00+02:00","utc":"2019-10-17T00:00:00.000Z"},"value":581.502,"unit":"µg/m³","coordinates":{"latitude":50.972167,"longitude":14.941319},"country":"PL","city":"Działoszyn"},{"location":"Rybnik, ul. Borki 37 d","parameter":"pm10","date":{"local":"2019-10-25T22:00:00+02:00","utc":"2019-10-25T20:00:00.000Z"},"value":549.642,"unit":"µg/m³","coordinates":{"latitude":50.111181,"longitude":18.516139},"country":"PL","city":"Rybnik"},{"location":"BiałaP-Orzechowa","parameter":"pm10","date":{"local":"2019-08-22T09:00:00+02:00","utc":"2019-08-22T07:00:00.000Z"},"value":521.03,"unit":"µg/m³","coordinates":{"latitude":52.029194,"longitude":23.149389},"country":"PL","city":"Biała Podlaska"},{"location":"Rybnik, ul. Borki 37 d","parameter":"pm10","date":{"local":"2019-10-07T21:00:00+02:00","utc":"2019-10-07T19:00:00.000Z"},"value":519.131,"unit":"µg/m³","coordinates":{"latitude":50.111181,"longitude":18.516139},"country":"PL","city":"Rybnik"},{"location":"Rybnik, ul. Borki 37 d","parameter":"pm10","date":{"local":"2019-10-08T00:00:00+02:00","utc":"2019-10-07T22:00:00.000Z"},"value":512.454,"unit":"µg/m³","coordinates":{"latitude":50.111181,"longitude":18.516139},"country":"PL","city":"Rybnik"},{"location":"Rybnik, ul. Borki 37 d","parameter":"pm10","date":{"local":"2019-10-07T23:00:00+02:00","utc":"2019-10-07T21:00:00.000Z"},"value":484.46,"unit":"µg/m³","coordinates":{"latitude":50.111181,"longitude":18.516139},"country":"PL","city":"Rybnik"}]}